{
  "data": [
    {
      "latitude": -32.569479,
      "longitude": 151.180008,
      "type": "address",
      "distance": 0.01,
      "name": "2-16 Orchard Avenue",
      "number": "2-16",
      "postal_code": "2330",
      "street": "Orchard Avenue",
      "confidence": 0.8,
      "region": "New South Wales",
      "region_code": "NSW",
      "county": "Singleton",
      "locality": "Singleton",
      "administrative_area": "Singleton",
      "neighbourhood": null,
      "country": "Australia",
      "country_code": "AUS",
      "continent": "Oceania",
      "label": "2-16 Orchard Avenue, Singleton, NSW, Australia"
    },
    {
      "latitude": -32.569479,
      "longitude": 151.180008,
      "type": "address",
      "distance": 0.01,
      "name": "2 Orchard Avenue",
      "number": "2",
      "postal_code": "2330",
      "street": "Orchard Avenue",
      "confidence": 0.8,
      "region": "New South Wales",
      "region_code": "NSW",
      "county": "Singleton",
      "locality": "Singleton",
      "administrative_area": "Singleton",
      "neighbourhood": null,
      "country": "Australia",
      "country_code": "AUS",
      "continent": "Oceania",
      "label": "2 Orchard Avenue, Singleton, NSW, Australia"
    },
    {
      "latitude": -32.569479,
      "longitude": 151.180008,
      "type": "address",
      "distance": 0.01,
      "name": "1 Maitland Road",
      "number": "1",
      "postal_code": "2330",
      "street": "Maitland Road",
      "confidence": 0.8,
      "region": "New South Wales",
      "region_code": "NSW",
      "county": "Singleton",
      "locality": "Singleton",
      "administrative_area": "Singleton",
      "neighbourhood": null,
      "country": "Australia",
      "country_code": "AUS",
      "continent": "Oceania",
      "label": "1 Maitland Road, Singleton, NSW, Australia"
    },
    {
      "latitude": -32.569479,
      "longitude": 151.180008,
      "type": "address",
      "distance": 0.01,
      "name": "6 Orchard Avenue",
      "number": "6",
      "postal_code": "2330",
      "street": "Orchard Avenue",
      "confidence": 0.8,
      "region": "New South Wales",
      "region_code": "NSW",
      "county": "Singleton",
      "locality": "Singleton",
      "administrative_area": "Singleton",
      "neighbourhood": null,
      "country": "Australia",
      "country_code": "AUS",
      "continent": "Oceania",
      "label": "6 Orchard Avenue, Singleton, NSW, Australia"
    },
    {
      "latitude": -32.569479,
      "longitude": 151.180008,
      "type": "address",
      "distance": 0.01,
      "name": "2-4 Orchard Avenue",
      "number": "2-4",
      "postal_code": "2330",
      "street": "Orchard Avenue",
      "confidence": 0.8,
      "region": "New South Wales",
      "region_code": "NSW",
      "county": "Singleton",
      "locality": "Singleton",
      "administrative_area": "Singleton",
      "neighbourhood": null,
      "country": "Australia",
      "country_code": "AUS",
      "continent": "Oceania",
      "label": "2-4 Orchard Avenue, Singleton, NSW, Australia"
    },
    {
      "latitude": -32.569666,
      "longitude": 151.180128,
      "type": "address",
      "distance": 0.032,
      "name": "3 Maitland Road",
      "number": "3",
      "postal_code": "2330",
      "street": "Maitland Road",
      "confidence": 0.8,
      "region": "New South Wales",
      "region_code": "NSW",
      "county": "Singleton",
      "locality": "Singleton",
      "administrative_area": "Singleton",
      "neighbourhood": null,
      "country": "Australia",
      "country_code": "AUS",
      "continent": "Oceania",
      "label": "3 Maitland Road, Singleton, NSW, Australia"
    },
    {
      "latitude": -32.56918,
      "longitude": 151.180531,
      "type": "venue",
      "distance": 0.053,
      "name": "Pizza Hut",
      "number": null,
      "postal_code": null,
      "street": null,
      "confidence": 0.8,
      "region": "New South Wales",
      "region_code": "NSW",
      "county": "Singleton",
      "locality": "Singleton",
      "administrative_area": "Singleton",
      "neighbourhood": null,
      "country": "Australia",
      "country_code": "AUS",
      "continent": "Oceania",
      "label": "Pizza Hut, Singleton, NSW, Australia"
    },
    {
      "latitude": -32.569076,
      "longitude": 151.18047,
      "type": "venue",
      "distance": 0.055,
      "name": "Subway",
      "number": null,
      "postal_code": null,
      "street": null,
      "confidence": 0.8,
      "region": "New South Wales",
      "region_code": "NSW",
      "county": "Singleton",
      "locality": "Singleton",
      "administrative_area": "Singleton",
      "neighbourhood": null,
      "country": "Australia",
      "country_code": "AUS",
      "continent": "Oceania",
      "label": "Subway, Singleton, NSW, Australia"
    },
    {
      "latitude": -32.569154,
      "longitude": 151.180538,
      "type": "address",
      "distance": 0.055,
      "name": "1 Howe Street",
      "number": "1",
      "postal_code": "2330",
      "street": "Howe Street",
      "confidence": 0.8,
      "region": "New South Wales",
      "region_code": "NSW",
      "county": "Singleton",
      "locality": "Singleton",
      "administrative_area": "Singleton",
      "neighbourhood": null,
      "country": "Australia",
      "country_code": "AUS",
      "continent": "Oceania",
      "label": "1 Howe Street, Singleton, NSW, Australia"
    },
    {
      "latitude": -32.569854,
      "longitude": 151.180248,
      "type": "address",
      "distance": 0.056,
      "name": "5 Maitland Road",
      "number": "5",
      "postal_code": "2330",
      "street": "Maitland Road",
      "confidence": 0.8,
      "region": "New South Wales",
      "region_code": "NSW",
      "county": "Singleton",
      "locality": "Singleton",
      "administrative_area": "Singleton",
      "neighbourhood": null,
      "country": "Australia",
      "country_code": "AUS",
      "continent": "Oceania",
      "label": "5 Maitland Road, Singleton, NSW, Australia"
    }
  ]
}
